City,Lat,Lng,Max Temp,Humidity,Cloudiness,Wind Speed,Country,Date
Saskylakh,71.92,114.08,1.72,92,98,6.87,RU,1603815811
Adrar,20.5,-10.07,96.51,10,0,10.25,MR,1603815798
Lorengau,-2.02,147.27,80.35,76,79,1.68,PG,1603816033
Zhigansk,66.77,123.37,-4.4,92,90,2.8,RU,1603815982
Talara,-4.58,-81.27,73.4,69,0,17.22,PE,1603816035
Zhaoyuan,37.36,120.4,55.99,64,100,6.78,CN,1603816037
Hobart,-42.88,147.33,48.2,93,90,5.82,AU,1603815647
Mataura,-46.19,168.86,39.99,91,15,1.74,NZ,1603815844
Chokurdakh,70.63,147.92,7.63,95,100,2.89,RU,1603815796
Tasiilaq,65.61,-37.64,32.0,92,75,18.34,GL,1603816041
Thompson,55.74,-97.86,24.8,73,90,5.82,CA,1603815905
Kahului,20.89,-156.47,78.8,74,1,3.22,US,1603816015
Vao,-22.67,167.48,72.81,78,64,18.12,NC,1603816045
Auki,-8.77,160.7,77.79,84,34,2.68,SB,1603816046
Yellowknife,62.46,-114.35,19.4,67,90,11.41,CA,1603815974
Punta Arenas,-53.15,-70.92,48.0,45,92,11.99,CL,1603815726
Bluff,-46.6,168.33,39.99,91,4,6.96,NZ,1603815880
Rikitea,-23.12,-134.97,74.98,85,77,17.56,PF,1603815843
Cidreira,-30.18,-50.21,64.9,81,90,17.76,BR,1603815940
Bengkulu,-3.8,102.27,76.33,86,94,3.71,ID,1603815764
Arraial do Cabo,-22.97,-42.03,82.4,65,0,12.75,BR,1603815889
Bredasdorp,-34.53,20.04,71.6,56,88,21.92,ZA,1603815866
Natal,-5.79,-35.21,86.0,62,75,12.75,BR,1603816005
Rybnaya Sloboda,55.46,50.14,28.4,86,0,4.47,RU,1603816057
Nichinan,31.6,131.37,64.87,76,49,1.59,JP,1603816058
Itarema,-2.92,-39.92,87.78,53,42,14.38,BR,1603816060
Ternate,0.8,127.4,81.34,78,28,4.65,ID,1603816061
Hilo,19.73,-155.09,73.4,88,75,5.82,US,1603815779
Preobrazheniye,42.9,133.91,48.6,81,8,3.36,RU,1603816063
Guarda,40.54,-7.27,55.99,91,93,5.99,PT,1603815949
George Town,5.41,100.34,84.2,79,20,2.24,MY,1603815912
Baoding,38.85,115.49,50.09,38,100,1.39,CN,1603816066
Simití,7.96,-73.94,90.21,57,25,2.68,CO,1603816067
Ushuaia,-54.8,-68.3,42.8,52,40,24.16,AR,1603815850
Mnogovershinnyy,53.94,139.92,27.54,98,5,0.85,RU,1603816070
Katsuura,35.13,140.3,62.6,67,20,9.17,JP,1603816071
Road Town,18.42,-64.62,87.8,66,61,10.29,VG,1603816072
Anito,12.45,125.29,79.2,84,96,3.38,PH,1603816073
Ponta do Sol,32.67,-17.1,68.0,68,75,13.87,PT,1603815966
Avarua,-21.21,-159.78,68.0,94,100,6.93,CK,1603815893
Ca Mau,9.18,105.15,77.79,89,100,7.09,VN,1603816077
Chumikan,54.72,135.31,37.4,79,100,13.15,RU,1603815974
Chui,-33.7,-53.46,65.17,74,100,18.05,UY,1603816079
Bījār,35.87,47.61,53.02,37,0,3.36,IR,1603816080
Hermanus,-34.42,19.23,64.99,82,98,4.0,ZA,1603815901
New Norfolk,-42.78,147.06,46.99,85,98,1.68,AU,1603815867
Wairoa,-39.03,177.37,54.0,77,100,4.0,NZ,1603816083
Ilulissat,69.22,-51.1,21.2,62,75,1.12,GL,1603816084
Tombouctou,20.0,-3.0,97.66,10,0,12.03,ML,1603816086
Batouri,4.43,14.37,74.32,92,94,2.59,CM,1603816087
Al Bardīyah,31.76,25.09,72.1,63,23,8.01,LY,1603816088
Pacific Grove,36.62,-121.92,57.99,24,1,4.7,US,1603816089
Lake City,30.19,-82.64,84.0,74,90,8.05,US,1603816082
Vestmannaeyjar,63.44,-20.27,41.0,75,75,43.62,IS,1603816091
Cabo San Lucas,22.89,-109.91,81.0,64,5,6.44,MX,1603815601
Oddur,4.12,43.89,79.29,65,20,7.09,SO,1603816094
Cockburn Town,21.46,-71.14,86.0,66,75,16.11,TC,1603815978
Kushima,31.46,131.23,62.73,83,52,3.24,JP,1603816096
Torbay,47.67,-52.73,46.4,100,90,11.41,CA,1603815794
Wilkie,52.42,-108.7,44.6,87,90,16.11,CA,1603816098
Vila Franca do Campo,37.72,-25.43,68.0,64,20,13.87,PT,1603815860
Souillac,-20.52,57.52,75.2,73,75,5.82,MU,1603815935
Umm Kaddadah,13.6,26.69,92.77,17,0,8.57,SD,1603816102
Srandakan,-7.94,110.25,77.0,88,100,3.15,ID,1603816082
Ancud,-41.87,-73.82,57.0,76,75,13.87,CL,1603815846
Butaritari,3.07,172.79,80.83,69,94,7.99,KI,1603815952
Petatlán,17.52,-101.27,87.8,66,40,0.45,MX,1603816106
Port Alfred,-33.59,26.89,74.52,78,62,13.89,ZA,1603815779
Ingham,42.6,-84.38,39.2,86,90,3.36,US,1603816109
Ransang,8.96,117.58,79.34,80,100,7.31,PH,1603816110
Ishinomaki,38.42,141.3,53.55,79,73,3.65,JP,1603816111
Hithadhoo,-0.6,73.08,83.98,67,73,8.28,MV,1603815907
Atuona,-9.8,-139.03,78.1,77,41,21.68,PF,1603815895
Kalabo,-14.97,22.68,94.42,15,68,8.88,ZM,1603816115
Norman Wells,65.28,-126.83,21.2,92,75,11.41,CA,1603815827
Puri,19.8,85.85,75.2,88,7,5.68,IN,1603816117
Srednekolymsk,67.45,153.68,12.65,89,87,6.64,RU,1603815840
Margate,51.38,1.39,55.0,93,100,8.01,GB,1603815971
Karpogory,64.0,44.45,37.15,99,100,7.63,RU,1603815925
Linqiong,30.42,103.46,62.01,77,40,4.47,CN,1603816121
Kabanjahe,3.1,98.49,78.8,100,75,8.05,ID,1603816123
Sokoni,-6.43,39.55,78.8,83,75,14.92,TZ,1603816124
Castro,-24.79,-50.01,77.04,43,26,7.94,BR,1603815772
Khatanga,71.97,102.5,3.06,94,99,12.91,RU,1603816008
Busselton,-33.65,115.33,60.01,72,52,9.35,AU,1603815842
Pisco,-13.7,-76.22,68.0,72,0,9.17,PE,1603815864
Amahai,-3.33,128.92,81.0,92,51,2.98,ID,1603815973
Kaitangata,-46.28,169.85,45.0,84,3,3.13,NZ,1603815965
Tezu,27.92,96.17,72.93,64,0,3.38,IN,1603816132
Longyearbyen,78.22,15.64,32.0,94,75,11.41,SJ,1603816133
Gornopravdinsk,60.05,69.9,18.27,95,100,11.07,RU,1603816134
Alofi,-19.06,-169.92,69.8,100,43,8.05,NU,1603815976
Pemangkat,1.17,108.97,78.03,86,84,9.57,ID,1603816136
Kilindoni,-7.91,39.67,79.36,80,0,14.16,TZ,1603816137
Marsh Harbour,26.54,-77.06,82.36,75,0,11.99,BS,1603816138
La Santisima Trinidad,-14.83,-64.9,87.8,55,75,4.7,BO,1603816128
Te Anau,-45.42,167.72,39.31,90,24,1.39,NZ,1603815967
Clyde River,70.47,-68.59,14.0,56,75,10.29,CA,1603816142
Kalamare,-22.93,26.57,85.62,18,0,10.89,BW,1603816143
Albany,42.6,-73.97,52.0,67,52,5.61,US,1603815613
Saint Paul Harbor,57.79,-152.41,42.8,60,1,9.17,US,1603816146
Severo-Kuril'sk,50.68,156.12,42.3,84,5,6.71,RU,1603815981
Nālūt,30.33,10.85,74.73,25,0,11.63,LY,1603816002
Intipucá,13.2,-88.05,86.0,83,40,2.24,SV,1603816149
Puerto Ayora,-0.74,-90.35,73.4,78,75,11.41,EC,1603815967
Codrington,-38.27,141.97,46.67,93,19,6.76,AU,1603815958
Kruisfontein,-34.0,24.73,69.01,80,89,1.99,ZA,1603815828
Gweru,-19.45,29.82,77.68,18,0,7.45,ZW,1603816153
Kāzerūn,29.62,51.65,60.89,32,0,3.22,IR,1603816155
Kutum,14.2,24.67,83.88,18,0,4.47,SD,1603816156
Saint George,37.1,-113.58,43.0,19,1,6.93,US,1603816157
Qaanaaq,77.48,-69.36,8.28,78,81,11.83,GL,1603815863
Sur,22.57,59.53,72.19,56,0,1.25,OM,1603816159
Lüderitz,-26.65,15.16,61.81,67,71,17.16,NA,1603816161
São João da Barra,-21.64,-41.05,82.4,58,20,6.93,BR,1603815852
Faanui,-16.48,-151.75,79.5,82,79,16.96,PF,1603816163
Banyo,6.75,11.82,77.83,61,1,3.94,CM,1603816164
Luanda,-8.84,13.23,78.8,83,75,9.17,AO,1603816165
Koslan,63.46,48.9,34.39,96,100,7.09,RU,1603816166
Nikolskoye,59.7,30.79,53.6,81,75,6.71,RU,1603816167
Barrow,71.29,-156.79,28.4,79,90,12.75,US,1603816169
Rio Grande,-32.03,-52.1,59.0,99,100,8.01,BR,1603816098
Tigil',57.8,158.67,34.12,89,91,1.36,RU,1603816171
Whitehorse,60.72,-135.05,28.99,79,75,4.7,CA,1603815949
Damietta,31.42,31.81,78.8,78,0,8.05,EG,1603816173
Bata,1.86,9.77,80.64,79,86,7.7,GQ,1603816174
Ishigaki,24.34,124.16,77.97,73,59,14.72,JP,1603816175
Jamestown,42.1,-79.24,46.0,87,90,8.05,US,1603816011
Yakeshi,49.28,120.73,20.95,95,21,9.69,CN,1603816178
Soc Trang,9.6,105.98,80.6,88,75,1.12,VN,1603816179
Airai,-8.93,125.41,61.75,100,91,1.03,TL,1603815793
Saint-Philippe,-21.36,55.77,77.0,69,90,2.24,RE,1603815987
Vaini,-21.2,-175.2,71.6,88,40,9.17,TO,1603815959
Klaksvík,62.23,-6.59,42.8,70,50,6.93,FO,1603815896
Nanortalik,60.14,-45.24,31.78,89,100,6.76,GL,1603815784
Pleshanovo,52.83,53.48,30.25,91,0,6.46,RU,1603816186
Kapaa,22.08,-159.32,71.6,83,40,8.05,US,1603815875
Havelock,34.88,-76.9,73.0,73,40,6.93,US,1603816188
Massakory,13.0,15.73,94.82,11,9,8.81,TD,1603816189
Aklavik,68.22,-135.01,8.6,92,90,2.33,CA,1603815999
Erzin,36.96,36.2,77.0,22,0,5.82,TR,1603816191
Troitsko-Pechorsk,62.71,56.2,26.55,97,100,9.04,RU,1603816193
Mahébourg,-20.41,57.7,75.2,73,75,5.82,MU,1603815961
Pevek,69.7,170.31,20.12,96,100,16.64,RU,1603815953
Tramandaí,-29.98,-50.13,65.91,77,85,16.6,BR,1603816033
Port Elizabeth,-33.92,25.57,66.2,88,0,10.29,ZA,1603815911
Kenai,60.55,-151.26,28.4,92,1,2.35,US,1603816198
Tautira,-17.73,-149.15,77.0,88,75,10.29,PF,1603816200
Mbarara,-0.61,30.65,66.42,84,96,2.28,UG,1603816201
Matara,5.95,80.54,78.31,86,99,6.6,LK,1603815977
Grindavik,63.84,-22.43,42.8,56,0,23.04,IS,1603816147
Marabu,4.41,114.01,75.2,100,40,2.24,MY,1603815931
Tiksi,71.69,128.87,2.39,92,95,7.49,RU,1603815972
Utica,43.1,-75.23,45.0,84,50,1.01,US,1603816052
Ostrovnoy,68.05,39.51,41.56,92,100,17.36,RU,1603815665
Lata,40.16,-8.33,61.0,91,100,1.01,PT,1603816209
Anuradhapura,8.36,80.42,77.67,81,70,1.36,LK,1603816210
Puerto Peñasco,31.32,-113.53,60.01,11,5,9.17,MX,1603816211
North Platte,41.12,-100.77,17.6,67,1,10.29,US,1603816213
West Plains,36.73,-91.85,39.2,86,90,10.29,US,1603816214
Karligan,14.97,122.05,78.84,83,77,3.09,PH,1603816215
Hambantota,6.12,81.12,77.0,100,75,2.24,LK,1603816216
Shingū,33.73,135.98,54.88,71,1,5.41,JP,1603815980
Turinskaya Sloboda,57.62,64.39,24.71,94,98,13.0,RU,1603816219
Touros,-5.2,-35.46,86.0,62,75,13.87,BR,1603815985
Caravelas,-17.71,-39.25,82.24,69,85,7.2,BR,1603816221
Mastic Beach,40.77,-72.85,60.8,59,75,9.17,US,1603815998
Mount Isa,-20.73,139.5,68.0,19,0,10.29,AU,1603816224
Storsteinnes,69.24,19.23,33.8,100,0,4.7,NO,1603816225
Katete,-0.78,29.75,64.31,97,77,2.64,UG,1603816226
Hay River,60.82,-115.8,23.0,92,75,14.99,CA,1603816204
Antofagasta,-23.65,-70.4,62.6,67,40,12.75,CL,1603816228
Klyuchi,52.27,79.17,39.07,73,91,19.39,RU,1603816230
Beringovskiy,63.05,179.32,28.08,92,81,11.3,RU,1603816231
Buala,-8.14,159.59,79.52,80,17,0.69,SB,1603816232
Tirumullaivāsal,11.23,79.83,80.67,78,1,8.37,IN,1603816233
Den Helder,52.96,4.76,52.0,87,90,18.34,NL,1603816234
Palmdale,34.58,-118.12,48.99,20,1,4.7,US,1603815952
Humaitá,-7.51,-63.02,97.65,39,100,3.38,BR,1603816237
Itoman,26.12,127.67,73.4,73,40,8.05,JP,1603816238
Ampanihy,-24.7,44.75,73.74,68,0,15.97,MG,1603816239
Bethel,41.37,-73.41,53.01,62,90,6.93,US,1603815645
Ribeira Grande,38.52,-28.7,69.8,52,40,6.93,PT,1603816241
Tilichiki,60.47,166.1,25.88,94,100,9.26,RU,1603816243
Iqaluit,63.75,-68.51,15.8,72,40,5.82,CA,1603815799
Olavarría,-36.89,-60.32,69.69,53,0,10.33,AR,1603816245
Corn Island,12.17,-83.04,83.44,74,99,7.65,NI,1603816246
Ponta Delgada,37.73,-25.67,68.0,64,20,13.87,PT,1603816247
Viedma,-40.81,-63.0,65.93,34,100,15.77,AR,1603816249
Tocopilla,-22.09,-70.2,67.46,50,11,8.37,CL,1603816250
Naze,28.37,129.48,68.0,82,75,1.12,JP,1603815967
Buin,-33.73,-70.75,64.99,47,75,3.36,CL,1603816252
Olafsvik,64.89,-23.71,39.65,71,100,20.27,IS,1603815996
Coyhaique,-45.58,-72.07,42.8,81,90,8.05,CL,1603816097
Provideniya,64.38,-173.3,30.13,95,88,2.71,RU,1603816256
Plainview,40.78,-73.47,59.0,54,40,11.41,US,1603816257
Khorixas,-20.37,14.97,81.64,18,48,19.91,NA,1603816258
Jacareacanga,-6.22,-57.75,82.99,72,98,2.04,BR,1603816259
Lompoc,34.64,-120.46,53.6,66,1,6.93,US,1603815999
Bambous Virieux,-20.34,57.76,75.2,73,75,5.82,MU,1603815933
Pascagoula,30.37,-88.56,82.4,74,90,8.05,US,1603816263
Tuatapere,-46.13,167.68,39.99,92,12,1.01,NZ,1603816264
Port-Gentil,-0.72,8.78,82.4,78,75,13.87,GA,1603816266
Tam Ky,15.57,108.48,77.0,78,90,9.17,VN,1603816267
Tumut,-35.3,148.22,52.61,78,99,5.77,AU,1603816268
Alice Springs,-23.7,133.88,60.8,25,0,5.82,AU,1603816269
Ulladulla,-35.35,150.47,55.99,100,90,6.93,AU,1603815929
Palmer,42.16,-72.33,53.01,71,75,5.82,US,1603816017
Truth or Consequences,33.13,-107.25,27.0,68,90,19.46,US,1603816116
Tommot,58.96,126.29,14.72,95,100,4.54,RU,1603816274
Morondava,-20.28,44.28,78.96,69,0,14.67,MG,1603816275
Mananjary,-21.22,48.33,72.97,83,14,6.93,MG,1603816276
Zhaotong,27.32,103.72,46.9,89,100,7.49,CN,1603816277
Stephenville,32.22,-98.2,34.0,96,90,13.87,US,1603816205
Aginskoye,51.1,114.53,22.24,84,0,6.35,RU,1603816280
Talnakh,69.49,88.4,1.4,84,0,6.71,RU,1603816281
Ayan,56.45,138.17,34.38,84,52,7.87,RU,1603815943
Niğde,37.83,34.75,56.93,37,90,6.98,TR,1603816283
Morehead,37.27,-87.18,53.6,93,90,3.53,US,1603816284
Borovskoy,53.8,64.15,25.52,97,100,20.98,KZ,1603816286
Banda Aceh,5.56,95.32,80.33,76,71,13.13,ID,1603816287
Namatanai,-3.67,152.43,79.34,78,61,2.82,PG,1603816288
Yar-Sale,66.83,70.83,4.15,94,13,6.85,RU,1603816289
Guerrero Negro,27.98,-114.06,69.19,24,0,14.27,MX,1603816290
Aktau,43.65,51.2,44.6,56,0,13.42,KZ,1603816292
Vostok,46.49,135.88,28.51,96,31,3.62,RU,1603816293
Carnarvon,-24.87,113.63,69.8,83,40,23.04,AU,1603816294
Verkhoyansk,67.54,133.38,7.11,93,97,3.62,RU,1603816295
Maryville,35.76,-83.97,68.0,88,90,4.7,US,1603816296
Hūn,29.13,15.95,80.55,19,29,11.86,LY,1603816297
Plettenberg Bay,-34.05,23.37,65.84,75,98,9.19,ZA,1603816299
Isangel,-19.55,169.27,74.03,82,30,13.69,VU,1603816300
São Filipe,14.9,-24.5,82.67,65,97,8.32,CV,1603816301
Mtwara,-10.27,40.18,80.6,74,20,13.87,TZ,1603816302
Alice Town,25.72,-79.3,82.18,80,76,15.28,BS,1603816304
Amarante do Maranhão,-5.57,-46.74,96.03,42,68,1.97,BR,1603816305
Khovd,48.01,91.64,31.46,80,97,0.54,MN,1603816306
Avera,33.19,-82.53,73.4,83,40,3.36,US,1603815956
Yulara,-25.24,130.99,68.0,24,0,6.93,AU,1603816308
Puerto Madero,14.72,-92.42,86.0,79,75,8.52,MX,1603816309
San Andrés,12.58,-81.7,86.0,79,90,8.05,CO,1603816040
Miles City,46.41,-105.84,26.6,63,1,6.93,US,1603816312
Bathsheba,13.22,-59.52,86.0,74,40,21.92,BB,1603816313
Kavieng,-2.57,150.8,82.09,71,54,3.78,PG,1603816314
Esperance,-33.87,121.9,55.4,100,0,3.36,AU,1603815846
Nemuro,43.32,145.57,49.69,69,53,4.03,JP,1603816316
Santa Cruz,30.42,-9.6,73.4,53,0,14.99,MA,1603816224
Bucerías,20.75,-105.33,86.0,66,40,3.36,MX,1603816319
Flin Flon,54.77,-101.86,24.8,92,90,3.36,CA,1603816320
Liusha,27.21,108.59,57.87,79,96,4.16,CN,1603816321
Buchanan,5.88,-10.05,86.0,74,75,13.87,LR,1603816322
Balkhash,46.84,74.98,37.98,65,0,18.84,KZ,1603816323
Iquique,-20.22,-70.14,68.0,52,0,12.75,CL,1603816325
Tabriz,38.08,46.29,57.2,29,0,4.7,IR,1603816326
Birjand,32.87,59.22,55.4,10,0,4.7,IR,1603816327
Sembakung,3.82,117.25,73.18,95,100,0.81,ID,1603816328
Nsanje,-16.92,35.26,84.33,41,56,7.4,MW,1603816329
Altay,47.87,88.12,39.87,53,11,7.4,CN,1603816330
Nadvoitsy,63.87,34.32,48.4,88,100,14.56,RU,1603816331
Mar del Plata,-38.0,-57.56,66.2,55,0,10.29,AR,1603815871
Pontes e Lacerda,-15.23,-59.34,96.19,41,79,4.45,BR,1603816334
Cherskiy,68.75,161.3,5.65,93,45,7.16,RU,1603816335
Tikrit,34.61,43.68,74.44,18,0,9.13,IQ,1603816336
Berlevåg,70.86,29.09,32.0,83,0,12.75,NO,1603816337
Inta,66.03,60.17,23.94,98,100,8.77,RU,1603816338
Pelham,33.29,-86.81,73.99,94,90,5.82,US,1603816328
Shangqiu,34.45,115.65,63.0,60,99,11.01,CN,1603816341
Mutoko,-17.4,32.23,75.67,27,0,9.98,ZW,1603816342
Kavaratti,10.57,72.64,82.24,72,15,5.64,IN,1603815891
Fortuna,40.6,-124.16,48.2,45,1,11.41,US,1603815937
Constitución,-35.33,-72.42,56.61,77,96,8.12,CL,1603816345
Forsytheganj,52.63,29.73,49.41,80,2,8.81,BY,1603816346
Cape Town,-33.93,18.42,66.2,72,20,10.29,ZA,1603815849
Bushehr,28.97,50.84,86.0,37,0,9.17,IR,1603816349
Tuktoyaktuk,69.45,-133.04,5.0,92,75,8.05,CA,1603816350
Weinan,34.5,109.51,54.0,100,90,2.24,CN,1603816351
Wanning,18.8,110.4,77.31,91,100,20.62,CN,1603816352
Viking,53.1,-111.77,44.17,80,100,14.09,CA,1603816353
Biscarrosse,44.39,-1.17,57.2,87,75,17.22,FR,1603816355
Rehoboth,-23.32,17.08,82.15,24,94,8.95,NA,1603816356
Fairbanks,64.84,-147.72,26.6,100,90,4.7,US,1603816290
Turukhansk,65.82,87.98,1.53,86,0,12.8,RU,1603816358
Moyale,3.52,39.06,70.56,78,42,6.55,KE,1603816359
College,64.86,-147.8,24.8,100,90,4.7,US,1603816361
Keetmanshoop,-26.58,18.13,90.23,11,64,17.83,NA,1603816362
Santa Rosalía,27.32,-112.28,68.05,35,0,13.44,MX,1603816363
Peniche,39.36,-9.38,64.0,88,84,10.0,PT,1603816364
Djibouti,11.5,42.5,84.2,58,1,6.93,DJ,1603816365
Osakarovka,50.56,72.57,28.13,97,100,14.2,KZ,1603816366
Darnah,32.77,22.64,73.71,66,12,6.06,LY,1603815968
Danané,7.26,-8.15,84.2,59,76,0.81,CI,1603816369
Borba,-4.39,-59.59,99.82,37,93,2.8,BR,1603816370
Lázaro Cárdenas,17.96,-102.2,83.35,79,99,1.99,MX,1603815885
Catarama,-1.58,-79.47,79.09,68,100,3.96,EC,1603816372
Letlhakeng,-24.09,25.03,84.61,19,14,7.49,BW,1603816373
Elizabeth City,36.29,-76.25,66.2,88,90,4.7,US,1603816374
Quatre Cocos,-20.21,57.76,75.2,73,75,5.82,MU,1603815978
Salalah,17.02,54.09,80.6,69,0,5.82,OM,1603816377
Abnūb,27.27,31.15,82.4,48,0,13.87,EG,1603816378
Saryg-Sep,51.5,95.6,27.27,91,95,3.0,RU,1603816379
Saldanha,-33.01,17.94,62.6,86,100,13.22,ZA,1603815930
Upernavik,72.79,-56.15,18.16,84,0,6.93,GL,1603815869
Nokaneng,-19.67,22.27,89.38,16,34,9.53,BW,1603816382
Barcelos,41.54,-8.62,59.0,100,90,17.22,PT,1603816383
Yaan,7.38,8.57,83.12,62,9,0.76,NG,1603816385
Narsaq,60.92,-46.05,33.8,64,75,4.34,GL,1603815849
Mudkhed,19.17,77.52,71.78,60,7,2.44,IN,1603816387
Mehamn,71.04,27.85,32.0,86,0,14.99,NO,1603816388
Presidencia Roque Sáenz Peña,-26.79,-60.44,87.01,34,0,1.99,AR,1603816389
Los Algarrobos,8.5,-82.43,84.2,74,40,4.7,PA,1603816280
Jijiga,9.35,42.8,64.81,37,28,15.93,ET,1603816391
Vila Velha,-20.33,-40.29,80.6,69,40,11.41,BR,1603815868
Chinhoyi,-17.37,30.2,77.94,28,52,5.55,ZW,1603816393
Nipawin,53.37,-104.0,28.4,100,90,2.24,CA,1603816202
Linhares,-19.39,-40.07,85.51,61,94,5.23,BR,1603816209
Phuket,8.0,98.25,86.0,83,20,8.05,TH,1603816397
Shipunovo,52.16,82.22,46.2,72,78,20.58,RU,1603816398
Sitka,57.05,-135.33,44.6,87,90,3.36,US,1603816399
Acapulco de Juárez,16.86,-99.89,84.2,83,90,3.11,MX,1603816372
Hualmay,-11.1,-77.61,68.56,69,72,8.61,PE,1603815918
Canatlán,24.52,-104.78,68.0,34,75,10.29,MX,1603816403
Craig,40.52,-107.55,1.4,84,1,1.63,US,1603816242
Samarai,-10.62,150.67,80.83,84,80,6.58,PG,1603816405
Soria,41.67,-2.67,46.0,86,93,4.0,ES,1603816406
Sivas Province,39.79,37.0,57.2,30,0,5.82,TR,1603816408
Hirado,33.36,129.55,59.0,82,98,1.99,JP,1603816409
Teya,60.38,92.63,24.62,95,100,11.95,RU,1603816410
Lamesa,32.74,-101.95,26.6,100,90,16.67,US,1603816411
Bubaque,11.28,-15.83,83.98,74,82,10.38,GW,1603816412
Lebu,-37.62,-73.65,53.58,63,18,9.19,CL,1603815899
Solnechnyy,50.72,136.63,31.26,93,99,1.25,RU,1603816415
Kirakira,-10.45,161.92,79.3,83,93,8.3,SB,1603816416
Tongren,27.72,109.19,63.54,68,100,3.96,CN,1603816417
Andros Town,24.7,-77.77,86.0,66,40,10.29,BS,1603816418
Mossamedes,-15.2,12.15,71.08,78,21,8.59,AO,1603816419
Muskegon,43.3,-86.13,37.4,86,90,5.57,US,1603816200
Haines Junction,60.75,-137.51,28.26,92,95,3.2,CA,1603816422
Geraldton,-28.77,114.6,66.2,68,90,14.99,AU,1603816255
Lakselv,70.05,24.97,32.0,92,0,3.36,NO,1603816424
Kununurra,-15.77,128.73,78.8,83,80,4.7,AU,1603816425
Bud,39.45,-86.18,46.99,100,90,0.45,US,1603816426
Ojinaga,29.57,-104.42,39.2,69,90,13.87,MX,1603816428
Nabire,-3.37,135.48,76.21,86,97,4.14,ID,1603816429
Talaya,61.38,152.75,10.76,92,31,3.22,RU,1603816430
Necochea,-38.55,-58.74,70.0,52,0,7.2,AR,1603816431
Okhotsk,59.38,143.3,28.78,83,2,9.1,RU,1603816432
Henties Bay,-22.12,14.28,61.0,84,1,8.01,NA,1603816434
Lavrentiya,65.58,-171.0,30.2,97,100,6.87,RU,1603815949
Ryōtsu-minato,38.08,138.43,55.98,63,20,2.46,JP,1603816436
Dingle,11.0,122.67,77.13,82,95,4.9,PH,1603816437
Andenes,69.31,16.12,39.2,93,0,10.29,NO,1603816438
Okato,-39.2,173.88,48.99,94,100,8.01,NZ,1603816440
Waterloo,43.47,-80.52,46.0,81,90,11.41,CA,1603816272
Floriano,-6.77,-43.02,97.47,38,100,2.42,BR,1603816442
Zarichne,51.81,26.13,52.93,89,0,6.93,UA,1603816443
Tsogni,-2.79,10.1,77.45,85,43,7.54,GA,1603816444
Marsabit,2.33,37.99,75.88,51,22,14.38,KE,1603816445
Lyubinskiy,55.15,72.69,33.8,100,75,2.24,RU,1603816447
Richards Bay,-28.78,32.04,74.03,79,61,9.04,ZA,1603816448
Coahuayana Viejo,18.73,-103.68,80.6,74,40,2.42,MX,1603816449
Mujiayingzi,42.12,118.78,35.64,63,3,6.44,CN,1603816450
Taltal,-25.4,-70.48,64.6,59,33,8.48,CL,1603816451
Machico,32.7,-16.77,68.0,68,75,13.87,PT,1603816453
Lago da Pedra,-4.33,-45.17,96.21,40,73,5.91,BR,1603816454
Dera Bugti,29.03,69.15,68.94,23,0,0.47,PK,1603816288
Karratha,-20.74,116.85,67.73,88,18,3.87,AU,1603816456
Lábrea,-7.26,-64.8,103.57,31,100,0.85,BR,1603816457
Saint Paul,44.94,-93.09,28.0,53,1,16.11,US,1603816239
Ahipara,-35.17,173.17,57.52,91,66,2.91,NZ,1603816460
Mombetsu,44.35,143.35,45.39,76,98,4.74,JP,1603816461
Eenhana,-17.47,16.33,102.2,9,63,4.7,NA,1603816462
Port Macquarie,-31.43,152.92,59.0,95,98,6.6,AU,1603816267
São Bento do Sul,-26.25,-49.38,89.01,55,20,6.93,BR,1603816281
Broome,42.25,-75.83,48.0,81,90,4.7,US,1603816466
Padang,-0.95,100.35,77.76,75,78,3.89,ID,1603815777
Paamiut,61.99,-49.67,28.9,86,0,18.21,GL,1603816468
Zyryanka,65.75,150.85,12.22,91,87,5.59,RU,1603816469
Raudeberg,61.99,5.14,48.99,74,27,6.4,NO,1603816471
Rawson,-43.3,-65.1,65.5,26,61,17.16,AR,1603816353
Koumac,-20.57,164.28,72.9,79,71,3.67,NC,1603816473
San Cristobal,7.77,-72.22,86.0,58,40,5.82,VE,1603816474
Alamosa,37.47,-105.87,8.6,92,90,10.85,US,1603816475
Hudiksvall,61.73,17.1,44.44,87,57,8.84,SE,1603816476
Hofn,64.25,-15.21,37.47,78,100,20.98,IS,1603816477
Guangyuan,32.44,105.82,55.99,99,92,17.0,CN,1603816479
Panama City,8.99,-79.52,84.2,79,40,4.7,PA,1603816270
Doka,13.52,35.77,85.62,27,14,3.24,SD,1603816481
Turaif,31.67,38.66,77.0,16,0,14.99,SA,1603816482
La Asuncion,11.03,-63.86,87.8,66,0,14.99,VE,1603816483
Assiut,27.18,31.18,82.4,48,0,13.87,EG,1603816268
Castlegar,49.3,-117.67,21.99,84,99,3.47,CA,1603816486
Biankouma,7.74,-7.61,83.21,59,45,2.62,CI,1603816487
Apple Valley,34.5,-117.19,57.0,10,2,8.01,US,1603816217
Aktyubinskiy,54.81,52.81,27.63,94,53,3.4,RU,1603816489
Champerico,14.3,-91.92,82.4,74,75,4.7,GT,1603816490
Tarakan,3.3,117.63,81.01,79,100,3.47,ID,1603816491
Plouzané,48.38,-4.62,55.4,87,75,11.41,FR,1603816408
Viçosa do Ceará,-3.56,-41.09,94.84,24,51,6.67,BR,1603816494
Sabla,12.75,4.71,87.12,16,1,4.63,NG,1603816495
Bose,45.46,8.01,54.0,79,35,3.74,IT,1603816496
Wagar,16.15,36.2,90.66,23,1,11.86,SD,1603816497
Kudahuvadhoo,2.67,72.89,82.87,77,15,12.64,MV,1603816498
Igboho,8.83,3.75,80.85,48,47,3.8,NG,1603816500
San Ignacio,17.16,-89.07,89.01,70,20,3.36,BZ,1603816501
Mogadishu,2.04,45.34,80.71,79,63,10.87,SO,1603816502
Lubango,-14.92,13.49,84.2,65,20,13.87,AO,1603816503
Cayenne,4.93,-52.33,91.4,59,20,9.17,GF,1603816207
Dikson,73.51,80.55,10.27,96,100,17.81,RU,1603815790
Soure,-0.72,-48.52,87.33,60,41,13.96,BR,1603816507
Leh,34.17,77.58,32.92,63,0,0.74,IN,1603816508
Krasnoarmeysk,51.02,45.7,37.99,61,0,4.0,RU,1603816509
Krasnosel'kup,65.7,82.47,-1.17,88,0,12.88,RU,1603816510
Pedernales,18.04,-71.74,87.8,79,20,9.51,DO,1603816511
Jumla,29.27,82.18,44.92,59,0,3.91,NP,1603816513
Prado,-17.34,-39.22,80.22,76,79,7.7,BR,1603816514
East London,-33.02,27.91,71.6,88,20,13.87,ZA,1603816515
Vallenar,-28.57,-70.76,75.65,37,35,7.61,CL,1603816517
Manokwari,-0.87,134.08,79.36,77,87,4.18,ID,1603816518
Mount Gambier,-37.83,140.77,48.2,100,3,5.82,AU,1603815936
Honiara,-9.43,159.95,73.4,100,40,3.36,SB,1603816520
Broken Hill,-31.95,141.43,55.4,76,75,6.93,AU,1603816289
Shimoda,34.67,138.95,55.0,83,15,6.49,JP,1603816384
Sühbaatar,50.23,106.21,29.05,87,0,3.24,MN,1603816523
Deputatsky,69.3,139.9,3.52,95,100,2.46,RU,1603816525
Safi,32.3,-9.24,66.7,62,0,23.47,MA,1603816526
Tekirdağ,40.98,27.51,62.6,88,20,8.05,TR,1603816527
Santiago de Cuba,20.02,-75.82,87.8,62,40,6.93,CU,1603816528
Bulungu,-4.55,18.6,75.88,89,83,1.88,CD,1603816529
Concepción de la Vega,19.22,-70.53,86.0,78,40,9.17,DO,1603816530
Mahon,39.89,4.27,62.6,55,20,6.93,ES,1603816393
Ippy,6.27,21.22,72.81,90,95,1.32,CF,1603816533
Wadi Maliz,36.47,8.55,62.6,63,40,9.17,TN,1603816534
Benguela,-12.58,13.41,82.4,69,20,16.11,AO,1603816535
Nyurba,63.28,118.33,13.98,90,100,2.73,RU,1603816536
Porbandar,21.64,69.61,81.79,53,0,10.02,IN,1603816537
Verkhniy Baskunchak,48.23,46.72,42.55,57,100,12.08,RU,1603816538
Kalmunai,7.42,81.82,80.78,77,42,3.62,LK,1603816018
Sangar,63.92,127.47,-3.62,92,41,4.99,RU,1603816387
Basco,20.45,121.97,81.48,84,100,21.16,PH,1603816542
Aden,12.78,45.04,82.69,62,0,10.36,YE,1603816375
Poole,50.72,-2.0,55.4,82,20,9.17,GB,1603816544
Anloga,5.79,0.9,84.2,74,40,12.75,GH,1603816545
Kenora,49.82,-94.43,23.0,79,90,13.87,CA,1603816261
Muroto-misakicho,33.28,134.15,66.54,67,27,4.68,JP,1603816548
Black River,18.03,-77.85,87.8,70,20,13.87,JM,1603816549
Noumea,-22.28,166.46,69.8,73,0,5.82,NC,1603816550
Nome,64.5,-165.41,30.2,80,90,4.88,US,1603816329
Mackay,-21.15,149.2,73.4,83,90,5.82,AU,1603816273
Suphan Buri,14.47,100.12,79.0,87,100,7.02,TH,1603816554
Lac du Bonnet,50.25,-96.06,24.01,98,100,8.99,CA,1603816318
Guarapari,-20.67,-40.5,80.01,77,65,3.0,BR,1603816556
Urbana,40.11,-88.21,39.2,93,90,5.82,US,1603816330
Port Lincoln,-34.73,135.87,55.31,87,0,6.69,AU,1603815825
Bilma,18.69,12.92,77.52,17,0,3.33,NE,1603816559
Yangi Marg`ilon,40.43,71.72,51.8,53,100,6.93,UZ,1603816560
Batagay-Alyta,67.8,130.41,2.68,91,56,2.21,RU,1603816562
Birao,10.28,22.79,82.65,38,0,3.87,CF,1603816563
Maniitsoq,65.42,-52.9,22.6,88,1,7.85,GL,1603816564
Kismayo,-0.36,42.55,80.2,81,68,12.93,SO,1603816565
Nizhnyaya Tavda,57.67,66.17,23.63,95,100,14.99,RU,1603816566
Baghdad,33.34,44.4,73.4,28,0,3.36,IQ,1603816567
Haimen,23.19,116.61,71.6,78,0,4.47,CN,1603816569
Māngrol,21.12,70.12,82.51,55,0,8.9,IN,1603816570
Hanyang,32.14,105.51,55.99,74,99,4.99,CN,1603816571
Oktyabr'skiy,54.48,53.47,28.81,93,18,2.71,RU,1603816572
Alyangula,-13.85,136.42,77.0,94,90,2.33,AU,1603816573
Kotido,2.98,34.13,78.87,42,94,13.22,UG,1603816575
Dvinskoy Bereznik,62.86,42.71,39.78,95,100,6.87,RU,1603816576
San Patricio,28.02,-97.52,57.2,93,90,13.87,US,1603816577
Sainte-Marie,-20.9,55.55,75.2,64,90,5.82,RE,1603816578
Alta Floresta,-9.88,-56.09,87.8,66,75,6.93,BR,1603816579
Darhan,49.49,105.92,30.47,86,0,7.0,MN,1603816581
Terrace,54.52,-128.6,46.4,87,90,3.36,CA,1603816501
Bilisht,40.63,20.99,62.6,51,20,3.09,AL,1603816583
Homnābād,17.77,77.13,70.56,73,53,5.44,IN,1603816584
Waipawa,-41.41,175.52,51.8,76,100,17.22,NZ,1603816585
Asău,46.43,26.4,51.01,98,0,0.02,RO,1603816586
Kuching,1.55,110.33,75.2,100,40,1.12,MY,1603816588
Moose Factory,51.26,-80.61,30.2,54,75,11.41,CA,1603816012
Grand Gaube,-20.01,57.66,73.99,72,10,3.0,MU,1603816590
Huarmey,-10.07,-78.15,69.4,67,78,9.53,PE,1603816591
Juba,4.85,31.58,80.1,66,95,1.34,SS,1603816592
Wawa,9.9,4.42,84.15,37,0,0.54,NG,1603816594
Egvekinot,66.32,-179.17,17.11,92,81,8.01,RU,1603816595
Talcahuano,-36.72,-73.12,59.0,51,20,12.75,CL,1603816596
Launceston,-41.45,147.17,46.99,87,75,9.17,AU,1603816597
Panzhihua,26.59,101.71,66.4,79,6,0.58,CN,1603816599
Saint Anthony,45.02,-93.22,28.99,62,1,12.75,US,1603816600
Evensk,61.95,159.23,24.49,81,0,13.98,RU,1603816601
Lotoshino,56.23,35.64,45.54,83,0,13.31,RU,1603816602
Mata,40.68,-7.46,55.99,90,98,8.01,PT,1603816603
Harper,4.38,-7.72,80.15,83,100,8.39,LR,1603816604
Cabot,34.97,-92.02,46.4,93,90,10.29,US,1603816452
Bridlington,54.08,-0.19,51.8,93,100,11.41,GB,1603816502
Brae,60.4,-1.35,50.0,87,75,11.41,GB,1603816608
Kishapu,-3.62,33.87,82.13,36,40,9.35,TZ,1603816609
Norsup,-16.07,167.38,77.0,83,40,8.05,VU,1603816611
La Tuque,47.43,-72.78,29.73,88,79,5.21,CA,1603816612
Coquimbo,-29.95,-71.34,57.2,76,90,9.17,CL,1603816319
Emba,48.83,58.14,33.55,85,0,12.12,KZ,1603816614
Lexington Park,38.27,-76.45,64.4,72,90,9.17,US,1603816616
Rivadavia,-33.19,-68.46,77.0,20,0,14.99,AR,1603816617
Dargaville,-35.93,173.88,55.54,93,21,2.15,NZ,1603816618
Shiraz,29.6,52.54,62.6,29,0,6.58,IR,1603816480
Diapaga,12.07,1.79,91.11,16,0,5.64,BF,1603816620
Keflavik,64.0,-22.56,42.8,56,0,23.04,IS,1603816621
Benghazi,32.12,20.07,78.55,51,23,8.99,LY,1603816623
Povenets,62.85,34.83,47.86,87,100,12.75,RU,1603816357
Port Augusta,-32.5,137.77,55.4,87,0,5.82,AU,1603816625
Muzhi,65.37,64.67,9.63,95,100,3.38,RU,1603816626
Augustów,53.84,22.98,54.12,84,100,7.63,PL,1603816627
Saint-Joseph,-21.37,55.62,77.0,69,90,2.24,RE,1603816629
Saint-Leu,-21.15,55.28,77.0,69,90,2.24,RE,1603816630
Pio XII,-3.83,-45.15,96.01,40,98,5.48,BR,1603816631
Liancheng,24.05,105.08,62.71,97,62,1.88,CN,1603816632
Arona,28.1,-16.68,75.99,57,75,21.92,ES,1603816633
Petropavlovsk-Kamchatskiy,53.05,158.65,35.6,93,11,4.47,RU,1603816634
Calvinia,-31.47,19.78,68.36,29,82,9.4,ZA,1603816636
Makakilo City,21.35,-158.09,75.2,88,1,3.36,US,1603816637
Pontal do Paraná,-25.65,-48.51,84.0,39,40,13.87,BR,1603816638
Kalianget,-7.05,113.93,81.97,73,65,2.44,ID,1603816639
Samfya,-11.36,29.56,80.44,34,66,4.94,ZM,1603816640
Pāveh,35.04,46.36,46.42,55,0,2.42,IR,1603816641
The Valley,18.22,-63.06,82.4,88,40,14.99,AI,1603816642
Anadyr,64.75,177.48,12.2,85,0,6.71,RU,1603816644
Kentville,45.08,-64.5,46.99,81,75,10.29,CA,1603816645
Madawaska,47.36,-68.33,33.01,93,90,11.41,US,1603816646
Dordrecht,51.81,4.67,53.01,80,96,8.99,NL,1603816647
Vagay,57.94,69.02,24.49,95,100,14.56,RU,1603816648
Tevaitoa,-16.78,-151.5,80.33,81,61,16.75,PF,1603816649
Bilibino,68.05,166.44,-1.89,90,99,0.65,RU,1603816650
Rodolfo Sánchez Taboada,31.72,-116.57,66.0,19,0,12.66,MX,1603816364
Porto Seguro,-16.45,-39.06,86.0,66,75,12.75,BR,1603816653
Valdivia,-39.81,-73.25,50.0,87,75,11.41,CL,1603816577
Chengdu,30.67,104.07,62.01,77,40,4.47,CN,1603816498
Vanimo,-2.67,141.3,78.37,78,100,1.43,PG,1603816656
Chapais,49.78,-74.85,26.6,58,1,9.17,CA,1603816657
Atar,20.52,-13.05,102.2,16,0,9.17,MR,1603816659
Kiryat Gat,31.61,34.76,79.0,100,0,3.0,IL,1603816660
Outjo,-20.12,16.15,86.9,18,41,8.34,NA,1603816661
Meulaboh,4.14,96.13,77.45,85,89,2.64,ID,1603816662
Tuy Hoa,13.08,109.3,74.64,86,100,31.97,VN,1603816663
Florø,61.6,5.03,46.4,87,75,8.05,NO,1603816665
Marystown,47.17,-55.15,54.0,100,100,5.01,CA,1603816666
Bodden Town,19.28,-81.25,87.8,70,20,17.22,KY,1603816667
Zeya,53.75,127.27,34.41,94,100,4.18,RU,1603816668
Nanpiao,41.1,120.75,43.27,49,64,4.54,CN,1603816669
Praia da Vitória,38.73,-27.07,66.2,63,40,14.25,PT,1603816670
Bassano,50.78,-112.47,44.01,64,100,5.01,CA,1603816671
Borogontsy,62.67,131.17,3.45,94,100,3.76,RU,1603816673
Newport,51.59,-3.0,55.0,82,64,3.0,GB,1603816387
Santa Inês,-3.67,-45.38,95.34,42,100,6.04,BR,1603816675
Truckee,39.33,-120.18,44.01,45,5,9.26,US,1603816676
Flinders,-34.58,150.86,55.99,89,47,1.01,AU,1603816677
Monrovia,6.3,-10.8,86.0,74,75,13.87,LR,1603816678
